[
  {
    "url": "https://www.airbnb.com/rooms/32337348",
    "region": "Kalamaria",
    "price_per_night": 124.2,
    "guests": 8,
    "beds": 5,
    "bedrooms": 2,
    "baths": 1,
    "is_superhost": false,
    "is_guest_favourite": true,
    "review_index": 4.87,
    "num_reviews": 158,
    "host_name": "Eugenia & Giota",
    "characteristics": [
      "Self check-in",
      "Dedicated workspace",
      "At-home coffee"
    ],
    "latitude": 40.57341,
    "longitude": 22.96052
  },
  {
    "url": "https://www.airbnb.com/rooms/989848960081240125",
    "region": "Kalamaria",
    "price_per_night": 74.2,
    "guests": 3,
    "beds": 2,
    "bedrooms": 1,
    "baths": 1,
    "is_superhost": false,
    "is_guest_favourite": true,
    "review_index": 4.89,
    "num_reviews": 53,
    "host_name": "Georgios",
    "characteristics": [
      "Exceptional check-in experience",
      "Peace and quiet",
      "At-home coffee"
    ],
    "latitude": 40.5943,
    "longitude": 22.9511
  },
  {
    "url": "https://www.airbnb.com/rooms/51192218",
    "region": "Kalamaria",
    "price_per_night": 78.6,
    "guests": 6,
    "beds": 3,
    "bedrooms": 2,
    "baths": 1,
    "is_superhost": false,
    "is_guest_favourite": false,
    "review_index": 4.75,
    "num_reviews": 208,
    "host_name": "Dimitrios & Fani",
    "characteristics": [
      "Self check-in",
      "Great for remote work",
      "At-home coffee"
    ],
    "latitude": 40.6068,
    "longitude": 22.9522
  },
  {
    "url": "https://www.airbnb.com/rooms/38315562",
    "region": "Kalamaria",
    "price_per_night": 73.0,
    "guests": 4,
    "beds": 1,
    "bedrooms": 1,
    "baths": 1,
    "is_superhost": false,
    "is_guest_favourite": true,
    "review_index": 4.97,
    "num_reviews": 61,
    "host_name": "Christina",
    "characteristics": [
      "Top 10% of homes",
      "Great check-in experience",
      "Beautiful area"
    ],
    "latitude": 40.57243,
    "longitude": 22.9537
  },
  {
    "url": "https://www.airbnb.com/rooms/659478917313600816",
    "region": "Panorama",
    "price_per_night": 187.0,
    "guests": 14,
    "beds": 5,
    "bedrooms": 4,
    "baths": 3,
    "is_superhost": false,
    "is_guest_favourite": false,
    "review_index": 4.75,
    "num_reviews": 28,
    "host_name": "Vasiliki",
    "characteristics": [
      "Self check-in",
      "Peace and quiet",
      "City and garden views"
    ],
    "latitude": 40.58404,
    "longitude": 23.02861
  },
  {
    "url": "https://www.airbnb.com/rooms/1215276140905079311",
    "region": "Kalamaria",
    "price_per_night": 141.2,
    "guests": 4,
    "beds": 3,
    "bedrooms": 2,
    "baths": 1,
    "is_superhost": true,
    "is_guest_favourite": false,
    "review_index": 4.67,
    "num_reviews": 6,
    "host_name": "Metaxenia'S Apartments",
    "characteristics": [
      "Self check-in",
      "At-home coffee"
    ],
    "latitude": 40.5727,
    "longitude": 22.9698
  },
  {
    "url": "https://www.airbnb.com/rooms/39789787",
    "region": "Kalamaria",
    "price_per_night": 66.8,
    "guests": 4,
    "beds": 2,
    "bedrooms": 1,
    "baths": 1,
    "is_superhost": true,
    "is_guest_favourite": false,
    "review_index": 4.88,
    "num_reviews": 105,
    "host_name": "Ινεσσα",
    "characteristics": [
      "Great check-in experience",
      "Self check-in"
    ],
    "latitude": 40.5979,
    "longitude": 22.9519
  },
  {
    "url": "https://www.airbnb.com/rooms/1085631832409329744",
    "region": "Kalamaria",
    "price_per_night": 63.4,
    "guests": 2,
    "beds": 1,
    "bedrooms": 1,
    "baths": 1,
    "is_superhost": true,
    "is_guest_favourite": false,
    "review_index": 4.62,
    "num_reviews": 76,
    "host_name": "Βασίλης Μπουλακης",
    "characteristics": [
      "Self check-in",
      "Furry friends welcome"
    ],
    "latitude": 40.59001,
    "longitude": 22.96456
  },
  {
    "url": "https://www.airbnb.com/rooms/1492744289072840705",
    "region": "Kalamaria",
    "price_per_night": 99.6,
    "guests": 4,
    "beds": 1,
    "bedrooms": 1,
    "baths": 1,
    "is_superhost": false,
    "is_guest_favourite": true,
    "review_index": 5,
    "num_reviews": 9,
    "host_name": "Παναγιωτης",
    "characteristics": [
      "Self check-in",
      "At-home coffee",
      "Exceptional host communication"
    ],
    "latitude": 40.60413,
    "longitude": 22.95148
  },
  {
    "url": "https://www.airbnb.com/rooms/1466619215263875188",
    "region": "Kalamaria",
    "price_per_night": 101.0,
    "guests": 2,
    "beds": 1,
    "bedrooms": 1,
    "baths": 1,
    "is_superhost": true,
    "is_guest_favourite": true,
    "review_index": 5,
    "num_reviews": 7,
    "host_name": "ProLiving Hospitality",
    "characteristics": [
      "Self check-in",
      "Unbeatable location"
    ],
    "latitude": 40.59569,
    "longitude": 22.95543
  },
  {
    "url": "https://www.airbnb.com/rooms/1246233199435735743",
    "region": "Kalamaria",
    "price_per_night": 102.0,
    "guests": 4,
    "beds": 3,
    "bedrooms": 2,
    "baths": 1,
    "is_superhost": true,
    "is_guest_favourite": false,
    "review_index": 4.77,
    "num_reviews": 13,
    "host_name": "Kaliopis Family House",
    "characteristics": [
      "Great check-in experience",
      "Self check-in"
    ],
    "latitude": 40.58314,
    "longitude": 22.95701
  },
  {
    "url": "https://www.airbnb.com/rooms/1504996156372927018",
    "region": "Kalamaria",
    "price_per_night": 67.0,
    "guests": 2,
    "beds": 1,
    "bedrooms": 1,
    "baths": 1,
    "is_superhost": false,
    "is_guest_favourite": true,
    "review_index": 5,
    "num_reviews": 14,
    "host_name": "Athanassios",
    "characteristics": [
      "Self check-in",
      "Great location",
      "At-home coffee"
    ],
    "latitude": 40.61,
    "longitude": 22.9615
  },
  {
    "url": "https://www.airbnb.com/rooms/1497060842650560392",
    "region": "Kalamaria",
    "price_per_night": 55.8,
    "guests": 3,
    "beds": 2,
    "bedrooms": 1,
    "baths": 1,
    "is_superhost": false,
    "is_guest_favourite": false,
    "review_index": 4.64,
    "num_reviews": 14,
    "host_name": "Smart Plan",
    "characteristics": [
      "Self check-in",
      "Great host communication"
    ],
    "latitude": 40.60545,
    "longitude": 22.95526
  },
  {
    "url": "https://www.airbnb.com/rooms/1562087106495754566",
    "region": "Kalamaria",
    "price_per_night": 934.0,
    "guests": 2,
    "beds": 1,
    "bedrooms": 1,
    "baths": 1,
    "is_superhost": true,
    "is_guest_favourite": false,
    "review_index": 4.76,
    "num_reviews": 17,
    "host_name": "Manolis",
    "characteristics": [
      "Self check-in",
      "Great location"
    ],
    "latitude": 40.6071,
    "longitude": 22.9572
  },
  {
    "url": "https://www.airbnb.com/rooms/1349404595008315505",
    "region": "Kalamaria",
    "price_per_night": 75.8,
    "guests": 4,
    "beds": 1,
    "bedrooms": 1,
    "baths": 1,
    "is_superhost": true,
    "is_guest_favourite": true,
    "review_index": 4.96,
    "num_reviews": 26,
    "host_name": "Despoina",
    "characteristics": [
      "Self check-in",
      "At-home coffee"
    ],
    "latitude": 40.60568,
    "longitude": 22.9552
  },
  {
    "url": "https://www.airbnb.com/rooms/596925870274508801",
    "region": "Kalamaria",
    "price_per_night": 107.0,
    "guests": 4,
    "beds": 2,
    "bedrooms": 1,
    "baths": 1,
    "is_superhost": true,
    "is_guest_favourite": false,
    "review_index": 4.76,
    "num_reviews": 101,
    "host_name": "Alba Katerina",
    "characteristics": [
      "Self check-in",
      "Furry friends welcome"
    ],
    "latitude": 40.577,
    "longitude": 22.9533
  },
  {
    "url": "https://www.airbnb.com/rooms/40720326",
    "region": "Panorama",
    "price_per_night": 74.4,
    "guests": 4,
    "beds": 2,
    "bedrooms": 1,
    "baths": 1,
    "is_superhost": false,
    "is_guest_favourite": true,
    "review_index": 4.87,
    "num_reviews": 92,
    "host_name": "Nandia",
    "characteristics": [
      "Self check-in",
      "Peace and quiet",
      "Garden view"
    ],
    "latitude": 40.591,
    "longitude": 23.0083
  },
  {
    "url": "https://www.airbnb.com/rooms/46507708",
    "region": "Kalamaria",
    "price_per_night": 1052.4,
    "guests": 2,
    "beds": 2,
    "bedrooms": 1,
    "baths": 1,
    "is_superhost": false,
    "is_guest_favourite": false,
    "review_index": 4.81,
    "num_reviews": 166,
    "host_name": "Manolis",
    "characteristics": [
      "Self check-in",
      "Great location",
      "Dedicated workspace"
    ],
    "latitude": 40.60673,
    "longitude": 22.95823
  },
  {
    "url": "https://www.airbnb.com/rooms/32609272",
    "region": "Kalamaria",
    "price_per_night": 117.0,
    "guests": 6,
    "beds": 3,
    "bedrooms": 2,
    "baths": 1,
    "is_superhost": false,
    "is_guest_favourite": true,
    "review_index": 4.94,
    "num_reviews": 103,
    "host_name": "Eva",
    "characteristics": [
      "Self check-in",
      "Peace and quiet",
      "Park for free"
    ],
    "latitude": 40.57771,
    "longitude": 22.9471
  },
  {
    "url": "https://www.airbnb.com/rooms/644466598517331001",
    "region": "Kalamaria",
    "price_per_night": 117.4,
    "guests": 4,
    "beds": 2,
    "bedrooms": 1,
    "baths": 1,
    "is_superhost": true,
    "is_guest_favourite": true,
    "review_index": 4.91,
    "num_reviews": 95,
    "host_name": "Innovation",
    "characteristics": [
      "Self check-in",
      "Mountain and city views"
    ],
    "latitude": 40.60334,
    "longitude": 22.95186
  },
  {
    "url": "https://www.airbnb.com/rooms/30812890",
    "region": "Kalamaria",
    "price_per_night": 64.8,
    "guests": 2,
    "beds": 2,
    "bedrooms": 1,
    "baths": 1,
    "is_superhost": false,
    "is_guest_favourite": true,
    "review_index": 4.96,
    "num_reviews": 23,
    "host_name": "Roula",
    "characteristics": [
      "Exceptional check-in experience",
      "Unbeatable location",
      "Dedicated workspace"
    ],
    "latitude": 40.57795,
    "longitude": 22.95312
  },
  {
    "url": "https://www.airbnb.com/rooms/981123667190349807",
    "region": "Kalamaria",
    "price_per_night": 55.2,
    "guests": 2,
    "beds": 1,
    "bedrooms": 1,
    "baths": 1,
    "is_superhost": false,
    "is_guest_favourite": true,
    "review_index": 4.95,
    "num_reviews": 146,
    "host_name": "Eleni",
    "characteristics": [
      "Top 5% of homes",
      "Self check-in",
      "Great location"
    ],
    "latitude": 40.59918,
    "longitude": 22.95918
  },
  {
    "url": "https://www.airbnb.com/rooms/1055670210006464019",
    "region": "Kalamaria",
    "price_per_night": 266.6,
    "guests": 5,
    "beds": 3,
    "bedrooms": 2,
    "baths": 1,
    "is_superhost": false,
    "is_guest_favourite": true,
    "review_index": 5,
    "num_reviews": 14,
    "host_name": "Dimitris",
    "characteristics": [
      "Exceptional check-in experience",
      "Park for free",
      "Exceptional host communication"
    ],
    "latitude": 40.5777,
    "longitude": 22.957
  },
  {
    "url": "https://www.airbnb.com/rooms/29788069",
    "region": "Kalamaria",
    "price_per_night": 137.8,
    "guests": 6,
    "beds": 4,
    "bedrooms": 2,
    "baths": 1,
    "is_superhost": false,
    "is_guest_favourite": true,
    "review_index": 4.93,
    "num_reviews": 91,
    "host_name": "Αναστασία",
    "characteristics": [
      "Top 5% of homes",
      "Outdoor entertainment",
      "Designed for staying cool"
    ],
    "latitude": 40.5898,
    "longitude": 22.9461
  },
  {
    "url": "https://www.airbnb.com/rooms/734092260025979463",
    "region": "Kalamaria",
    "price_per_night": 68.4,
    "guests": 3,
    "beds": 3,
    "bedrooms": 1,
    "baths": 1,
    "is_superhost": false,
    "is_guest_favourite": true,
    "review_index": 4.89,
    "num_reviews": 65,
    "host_name": "Βασιλειος",
    "characteristics": [
      "Self check-in",
      "Peace and quiet",
      "Garden view"
    ],
    "latitude": 40.58711,
    "longitude": 22.9699
  },
  {
    "url": "https://www.airbnb.com/rooms/1454320457606868261",
    "region": "Kalamaria",
    "price_per_night": 107.4,
    "guests": 4,
    "beds": 3,
    "bedrooms": 1,
    "baths": 1,
    "is_superhost": false,
    "is_guest_favourite": true,
    "review_index": 5,
    "num_reviews": 12,
    "host_name": "Maria",
    "characteristics": [
      "Top 10% of homes",
      "Self check-in",
      "Peace and quiet"
    ],
    "latitude": 40.5901,
    "longitude": 22.9498
  },
  {
    "url": "https://www.airbnb.com/rooms/1196684582266090659",
    "region": "Kalamaria",
    "price_per_night": 64.4,
    "guests": 2,
    "beds": 1,
    "bedrooms": 1,
    "baths": 1,
    "is_superhost": true,
    "is_guest_favourite": true,
    "review_index": 4.94,
    "num_reviews": 65,
    "host_name": "Nikolaos",
    "characteristics": [
      "Self check-in",
      "Furry friends welcome"
    ],
    "latitude": 40.60379,
    "longitude": 22.96199
  },
  {
    "url": "https://www.airbnb.com/rooms/1591467347951458884",
    "region": "Kalamaria",
    "price_per_night": 70.6,
    "guests": 2,
    "beds": 1,
    "bedrooms": 1,
    "baths": 1,
    "is_superhost": false,
    "is_guest_favourite": true,
    "review_index": 5,
    "num_reviews": 7,
    "host_name": "Κώστας",
    "characteristics": [
      "Self check-in",
      "Peace and quiet",
      "At-home coffee"
    ],
    "latitude": 40.59621,
    "longitude": 22.96445
  },
  {
    "url": "https://www.airbnb.com/rooms/52533116",
    "region": "Kalamaria",
    "price_per_night": 81.2,
    "guests": 3,
    "beds": 2,
    "bedrooms": 1,
    "baths": 1,
    "is_superhost": true,
    "is_guest_favourite": false,
    "review_index": 4.91,
    "num_reviews": 33,
    "host_name": "Dimitrios",
    "characteristics": [
      "Self check-in"
    ],
    "latitude": 40.59143,
    "longitude": 22.96748
  },
  {
    "url": "https://www.airbnb.com/rooms/1276089374462334990",
    "region": "Kalamaria",
    "price_per_night": 119.0,
    "guests": 2,
    "beds": 1,
    "bedrooms": 1,
    "baths": 1,
    "is_superhost": true,
    "is_guest_favourite": false,
    "review_index": 4.93,
    "num_reviews": 29,
    "host_name": "ProLiving Hospitality",
    "characteristics": [
      "Exceptional check-in experience",
      "Self check-in"
    ],
    "latitude": 40.594,
    "longitude": 22.956
  },
  {
    "url": "https://www.airbnb.com/rooms/1367482876774768494",
    "region": "Kalamaria",
    "price_per_night": 155.0,
    "guests": 5,
    "beds": 2,
    "bedrooms": 2,
    "baths": 1,
    "is_superhost": false,
    "is_guest_favourite": true,
    "review_index": 5,
    "num_reviews": 8,
    "host_name": "Katerina",
    "characteristics": [
      "Exceptional check-in experience",
      "Peace and quiet",
      "At-home coffee"
    ],
    "latitude": 40.5728,
    "longitude": 22.967
  },
  {
    "url": "https://www.airbnb.com/rooms/656332026958406791",
    "region": "Kalamaria",
    "price_per_night": 115.0,
    "guests": 5,
    "beds": 3,
    "bedrooms": 1,
    "baths": 1,
    "is_superhost": false,
    "is_guest_favourite": true,
    "review_index": 4.97,
    "num_reviews": 117,
    "host_name": "Matoula",
    "characteristics": [
      "Self check-in",
      "Park for free",
      "Great for remote work"
    ],
    "latitude": 40.5888,
    "longitude": 22.9607
  },
  {
    "url": "https://www.airbnb.com/rooms/609820306982552943",
    "region": "Kalamaria",
    "price_per_night": 87.2,
    "guests": 2,
    "beds": 1,
    "bedrooms": 1,
    "baths": 1,
    "is_superhost": false,
    "is_guest_favourite": false,
    "review_index": 4.88,
    "num_reviews": 85,
    "host_name": "Ελευθερία",
    "characteristics": [
      "Self check-in",
      "Great for remote work",
      "At-home coffee"
    ],
    "latitude": 40.5843,
    "longitude": 22.9533
  },
  {
    "url": "https://www.airbnb.com/rooms/16490221",
    "region": "Kalamaria",
    "price_per_night": 40.2,
    "guests": 4,
    "beds": 2,
    "bedrooms": 2,
    "baths": 1,
    "is_superhost": false,
    "is_guest_favourite": false,
    "review_index": 4.6,
    "num_reviews": 287,
    "host_name": "Kalliniki",
    "characteristics": [
      "Great check-in experience",
      "Self check-in",
      "Great host communication"
    ],
    "latitude": 40.6044,
    "longitude": 22.95616
  },
  {
    "url": "https://www.airbnb.com/rooms/821512122162060850",
    "region": "Kalamaria",
    "price_per_night": 105.8,
    "guests": 7,
    "beds": 3,
    "bedrooms": 2,
    "baths": 1,
    "is_superhost": true,
    "is_guest_favourite": false,
    "review_index": 4.82,
    "num_reviews": 45,
    "host_name": "Stavros",
    "characteristics": [
      "Self check-in",
      "Dedicated workspace"
    ],
    "latitude": 40.6011,
    "longitude": 22.9547
  },
  {
    "url": "https://www.airbnb.com/rooms/43417205",
    "region": "Kalamaria",
    "price_per_night": 99.8,
    "guests": 5,
    "beds": 3,
    "bedrooms": 3,
    "baths": 2,
    "is_superhost": false,
    "is_guest_favourite": false,
    "review_index": 4.83,
    "num_reviews": 24,
    "host_name": "Giorgos",
    "characteristics": [
      "Exceptional check-in experience",
      "Calm and convenient location",
      "Garden view"
    ],
    "latitude": 40.58611,
    "longitude": 22.96585
  },
  {
    "url": "https://www.airbnb.com/rooms/864448614251430298",
    "region": "Kalamaria",
    "price_per_night": 78.2,
    "guests": 2,
    "beds": 1,
    "bedrooms": 1,
    "baths": 1,
    "is_superhost": false,
    "is_guest_favourite": true,
    "review_index": 4.89,
    "num_reviews": 74,
    "host_name": "Laonikos Apartments/ Your Host: Zeta",
    "characteristics": [
      "Self check-in",
      "Garden view",
      "Great for remote work"
    ],
    "latitude": 40.6002,
    "longitude": 22.9534
  },
  {
    "url": "https://www.airbnb.com/rooms/1151387638969997171",
    "region": "Kalamaria",
    "price_per_night": 13.4,
    "guests": 5,
    "beds": 3,
    "bedrooms": 3,
    "baths": 2,
    "is_superhost": false,
    "is_guest_favourite": true,
    "review_index": 5,
    "num_reviews": 30,
    "host_name": "Patroklos",
    "characteristics": [
      "Top 10% of homes",
      "Outdoor entertainment",
      "Designed for staying cool"
    ],
    "latitude": 40.57469,
    "longitude": 22.96693
  },
  {
    "url": "https://www.airbnb.com/rooms/2656518",
    "region": "Kalamaria",
    "price_per_night": 42.2,
    "guests": 4,
    "beds": 2,
    "bedrooms": 1,
    "baths": 1,
    "is_superhost": false,
    "is_guest_favourite": false,
    "review_index": 4.53,
    "num_reviews": 141,
    "host_name": "Filitsa",
    "characteristics": [
      "Self check-in",
      "Great location",
      "Furry friends welcome"
    ],
    "latitude": 40.60826,
    "longitude": 22.96228
  },
  {
    "url": "https://www.airbnb.com/rooms/26766872",
    "region": "Kalamaria",
    "price_per_night": 114.2,
    "guests": 6,
    "beds": 3,
    "bedrooms": 2,
    "baths": 1,
    "is_superhost": false,
    "is_guest_favourite": false,
    "review_index": 3.2,
    "num_reviews": 5,
    "host_name": "Houseloft",
    "characteristics": [
      "Self check-in",
      "City view",
      "At-home coffee"
    ],
    "latitude": 40.5861,
    "longitude": 22.95
  },
  {
    "url": "https://www.airbnb.com/rooms/1398973024365087320",
    "region": "Kalamaria",
    "price_per_night": 70.8,
    "guests": 4,
    "beds": 2,
    "bedrooms": 1,
    "baths": 1,
    "is_superhost": true,
    "is_guest_favourite": true,
    "review_index": 5,
    "num_reviews": 5,
    "host_name": "Dimitris",
    "characteristics": [
      "Exceptional check-in experience",
      "At-home coffee"
    ],
    "latitude": 40.57771,
    "longitude": 22.95204
  },
  {
    "url": "https://www.airbnb.com/rooms/10133783",
    "region": "Kalamaria",
    "price_per_night": 136.2,
    "guests": 8,
    "beds": 4,
    "bedrooms": 2,
    "baths": 1,
    "is_superhost": false,
    "is_guest_favourite": false,
    "review_index": 4.75,
    "num_reviews": 357,
    "host_name": "Thess1home Apartments",
    "characteristics": [
      "24-hour self check-in",
      "Great for remote work",
      "At-home coffee"
    ],
    "latitude": 40.5766,
    "longitude": 22.9643
  },
  {
    "url": "https://www.airbnb.com/rooms/778046674717350197",
    "region": "Kalamaria",
    "price_per_night": 121.4,
    "guests": 6,
    "beds": 5,
    "bedrooms": 2,
    "baths": 1,
    "is_superhost": true,
    "is_guest_favourite": false,
    "review_index": 4.89,
    "num_reviews": 62,
    "host_name": "Alexandros",
    "characteristics": [
      "Self check-in",
      "Great for remote work"
    ],
    "latitude": 40.5759,
    "longitude": 22.9494
  },
  {
    "url": "https://www.airbnb.com/rooms/1179081646316354603",
    "region": "Kalamaria",
    "price_per_night": 83.6,
    "guests": 4,
    "beds": 3,
    "bedrooms": 2,
    "baths": 1,
    "is_superhost": false,
    "is_guest_favourite": true,
    "review_index": 4.83,
    "num_reviews": 46,
    "host_name": "Paraskevi",
    "characteristics": [
      "Self check-in",
      "At-home coffee",
      "Great host communication"
    ],
    "latitude": 40.6036,
    "longitude": 22.9538
  },
  {
    "url": "https://www.airbnb.com/rooms/788259620405439313",
    "region": "Kalamaria",
    "price_per_night": 86.8,
    "guests": 4,
    "beds": 2,
    "bedrooms": 1,
    "baths": 1,
    "is_superhost": true,
    "is_guest_favourite": true,
    "review_index": 4.84,
    "num_reviews": 83,
    "host_name": "Olga",
    "characteristics": [
      "Exceptional check-in experience",
      "Lots to do nearby"
    ],
    "latitude": 40.5976,
    "longitude": 22.9562
  },
  {
    "url": "https://www.airbnb.com/rooms/24076151",
    "region": "Kalamaria",
    "price_per_night": 81.2,
    "guests": 4,
    "beds": 3,
    "bedrooms": 2,
    "baths": 1,
    "is_superhost": false,
    "is_guest_favourite": false,
    "review_index": 4.84,
    "num_reviews": 148,
    "host_name": "Βαγγελης",
    "characteristics": [
      "Great check-in experience",
      "Park for free",
      "Great host communication"
    ],
    "latitude": 40.59114,
    "longitude": 22.95479
  },
  {
    "url": "https://www.airbnb.com/rooms/42309254",
    "region": "Kalamaria",
    "price_per_night": 90.6,
    "guests": 4,
    "beds": 4,
    "bedrooms": 0,
    "baths": 1,
    "is_superhost": false,
    "is_guest_favourite": true,
    "review_index": 4.9,
    "num_reviews": 132,
    "host_name": "Χρήστος",
    "characteristics": [
      "Self check-in",
      "Beautiful area",
      "Park for free"
    ],
    "latitude": 40.57644,
    "longitude": 22.94653
  },
  {
    "url": "https://www.airbnb.com/rooms/870314491949610894",
    "region": "Kalamaria",
    "price_per_night": 105.8,
    "guests": 2,
    "beds": 1,
    "bedrooms": 1,
    "baths": 1,
    "is_superhost": false,
    "is_guest_favourite": false,
    "review_index": 4.81,
    "num_reviews": 21,
    "host_name": "Θεοκλήτη",
    "characteristics": [
      "Park for free",
      "Dedicated workspace",
      "At-home coffee"
    ],
    "latitude": 40.57753,
    "longitude": 22.95228
  },
  {
    "url": "https://www.airbnb.com/rooms/53599271",
    "region": "Kalamaria",
    "price_per_night": 67.0,
    "guests": 4,
    "beds": 2,
    "bedrooms": 1,
    "baths": 1,
    "is_superhost": false,
    "is_guest_favourite": false,
    "review_index": 4.96,
    "num_reviews": 71,
    "host_name": "Chris",
    "characteristics": [
      "Outdoor entertainment",
      "Self check-in",
      "City and park views"
    ],
    "latitude": 40.60341,
    "longitude": 22.95762
  },
  {
    "url": "https://www.airbnb.com/rooms/1212496147083688564",
    "region": "Kalamaria",
    "price_per_night": 136.6,
    "guests": 4,
    "beds": 1,
    "bedrooms": 1,
    "baths": 1,
    "is_superhost": false,
    "is_guest_favourite": false,
    "review_index": 4.84,
    "num_reviews": 51,
    "host_name": "Maria",
    "characteristics": [
      "Outdoor entertainment",
      "Designed for staying cool",
      "Self check-in"
    ],
    "latitude": 40.59075,
    "longitude": 22.94661
  },
  {
    "url": "https://www.airbnb.com/rooms/852825945076704381",
    "region": "Kalamaria",
    "price_per_night": 118.6,
    "guests": 4,
    "beds": 1,
    "bedrooms": 1,
    "baths": 1,
    "is_superhost": false,
    "is_guest_favourite": true,
    "review_index": 5,
    "num_reviews": 56,
    "host_name": "Katerina",
    "characteristics": [
      "Top 5% of homes",
      "Self check-in",
      "Peace and quiet"
    ],
    "latitude": 40.57608,
    "longitude": 22.96408
  },
  {
    "url": "https://www.airbnb.com/rooms/1217506494519860289",
    "region": "Kalamaria",
    "price_per_night": 112.6,
    "guests": 4,
    "beds": 1,
    "bedrooms": 1,
    "baths": 1,
    "is_superhost": false,
    "is_guest_favourite": true,
    "review_index": 5,
    "num_reviews": 5,
    "host_name": "Ζωή",
    "characteristics": [
      "Self check-in",
      "Beautiful area",
      "Exceptional host communication"
    ],
    "latitude": 40.5835,
    "longitude": 22.9659
  },
  {
    "url": "https://www.airbnb.com/rooms/1276089509865871176",
    "region": "Kalamaria",
    "price_per_night": 137.6,
    "guests": 6,
    "beds": 3,
    "bedrooms": 2,
    "baths": 1,
    "is_superhost": false,
    "is_guest_favourite": true,
    "review_index": 5,
    "num_reviews": 8,
    "host_name": "Εva",
    "characteristics": [
      "Self check-in",
      "Unbeatable location",
      "Park for free"
    ],
    "latitude": 40.5762,
    "longitude": 22.9531
  },
  {
    "url": "https://www.airbnb.com/rooms/45278839",
    "region": "Kalamaria",
    "price_per_night": 124.6,
    "guests": 4,
    "beds": 2,
    "bedrooms": 2,
    "baths": 1,
    "is_superhost": false,
    "is_guest_favourite": true,
    "review_index": 4.78,
    "num_reviews": 23,
    "host_name": "Dimitra",
    "characteristics": [
      "Exceptional check-in experience",
      "Peace and quiet",
      "Exceptional host communication"
    ],
    "latitude": 40.5863,
    "longitude": 22.9657
  },
  {
    "url": "https://www.airbnb.com/rooms/1278085505321443972",
    "region": "Kalamaria",
    "price_per_night": 241.8,
    "guests": 6,
    "beds": 3,
    "bedrooms": 3,
    "baths": 1,
    "is_superhost": true,
    "is_guest_favourite": true,
    "review_index": 5,
    "num_reviews": 13,
    "host_name": "BiNoBi",
    "characteristics": [
      "Self check-in",
      "At-home coffee"
    ],
    "latitude": 40.575,
    "longitude": 22.9485
  },
  {
    "url": "https://www.airbnb.com/rooms/801257237782014866",
    "region": "Kalamaria",
    "price_per_night": 97.4,
    "guests": 5,
    "beds": 3,
    "bedrooms": 1,
    "baths": 1,
    "is_superhost": false,
    "is_guest_favourite": false,
    "review_index": 4.92,
    "num_reviews": 60,
    "host_name": "Thess1home Apartments",
    "characteristics": [
      "Self check-in",
      "Unbeatable location",
      "City view"
    ],
    "latitude": 40.5828,
    "longitude": 22.9474
  },
  {
    "url": "https://www.airbnb.com/rooms/22990519",
    "region": "Kalamaria",
    "price_per_night": 93.0,
    "guests": 3,
    "beds": 2,
    "bedrooms": 1,
    "baths": 1,
    "is_superhost": true,
    "is_guest_favourite": false,
    "review_index": 4.84,
    "num_reviews": 122,
    "host_name": "Ελευθερία",
    "characteristics": [
      "Self check-in",
      "Fast wifi"
    ],
    "latitude": 40.584,
    "longitude": 22.9533
  },
  {
    "url": "https://www.airbnb.com/rooms/739625265111727121",
    "region": "Kalamaria",
    "price_per_night": 67.0,
    "guests": 2,
    "beds": 1,
    "bedrooms": 1,
    "baths": 1,
    "is_superhost": false,
    "is_guest_favourite": false,
    "review_index": 4.33,
    "num_reviews": 27,
    "host_name": "Κωνσταντίνος",
    "characteristics": [
      "Self check-in",
      "City view",
      "Dedicated workspace"
    ],
    "latitude": 40.5875,
    "longitude": 22.9571
  },
  {
    "url": "https://www.airbnb.com/rooms/1252141541774062609",
    "region": "Kalamaria",
    "price_per_night": 76.0,
    "guests": 3,
    "beds": 2,
    "bedrooms": 2,
    "baths": 1,
    "is_superhost": true,
    "is_guest_favourite": false,
    "review_index": 4.92,
    "num_reviews": 13,
    "host_name": "Σκαρλατος",
    "characteristics": [
      "Self check-in",
      "At-home coffee"
    ],
    "latitude": 40.5754,
    "longitude": 22.9503
  },
  {
    "url": "https://www.airbnb.com/rooms/591874939577570825",
    "region": "Kalamaria",
    "price_per_night": 75.6,
    "guests": 4,
    "beds": 3,
    "bedrooms": 2,
    "baths": 1,
    "is_superhost": false,
    "is_guest_favourite": true,
    "review_index": 4.91,
    "num_reviews": 262,
    "host_name": "Γιάννης",
    "characteristics": [
      "Top 10% of homes",
      "Designed for staying cool",
      "Self check-in"
    ],
    "latitude": 40.5847,
    "longitude": 22.9547
  },
  {
    "url": "https://www.airbnb.com/rooms/33883416",
    "region": "Kalamaria",
    "price_per_night": 66.2,
    "guests": 2,
    "beds": 2,
    "bedrooms": 0,
    "baths": 1,
    "is_superhost": false,
    "is_guest_favourite": false,
    "review_index": 4.79,
    "num_reviews": 89,
    "host_name": "Rebeka",
    "characteristics": [],
    "latitude": 40.5813,
    "longitude": 22.94642
  },
  {
    "url": "https://www.airbnb.com/rooms/1467345474582795981",
    "region": "Kalamaria",
    "price_per_night": 129.0,
    "guests": 4,
    "beds": 2,
    "bedrooms": 2,
    "baths": 1,
    "is_superhost": true,
    "is_guest_favourite": false,
    "review_index": 5,
    "num_reviews": 7,
    "host_name": "ProLiving Hospitality",
    "characteristics": [
      "Self check-in",
      "Unbeatable location"
    ],
    "latitude": 40.59376,
    "longitude": 22.95686
  },
  {
    "url": "https://www.airbnb.com/rooms/854165190940773076",
    "region": "Kalamaria",
    "price_per_night": 100.8,
    "guests": 3,
    "beds": 2,
    "bedrooms": 1,
    "baths": 1,
    "is_superhost": false,
    "is_guest_favourite": true,
    "review_index": 4.98,
    "num_reviews": 40,
    "host_name": "Stella",
    "characteristics": [
      "Top 5% of homes",
      "Exceptional check-in experience",
      "Beautiful area"
    ],
    "latitude": 40.57325,
    "longitude": 22.94953
  },
  {
    "url": "https://www.airbnb.com/rooms/25538868",
    "region": "Kalamaria",
    "price_per_night": 66.2,
    "guests": 2,
    "beds": 1,
    "bedrooms": 1,
    "baths": 1,
    "is_superhost": false,
    "is_guest_favourite": false,
    "review_index": 4.77,
    "num_reviews": 138,
    "host_name": "Stathis",
    "characteristics": [
      "Self check-in",
      "Great location",
      "Dedicated workspace"
    ],
    "latitude": 40.5835,
    "longitude": 22.9575
  },
  {
    "url": "https://www.airbnb.com/rooms/4467736",
    "region": "Kalamaria",
    "price_per_night": 43.8,
    "guests": 4,
    "beds": 4,
    "bedrooms": 0,
    "baths": 1,
    "is_superhost": false,
    "is_guest_favourite": false,
    "review_index": 4.64,
    "num_reviews": 114,
    "host_name": "Filitsa",
    "characteristics": [
      "Self check-in",
      "Furry friends welcome"
    ],
    "latitude": 40.60973,
    "longitude": 22.96299
  },
  {
    "url": "https://www.airbnb.com/rooms/1364337385614157681",
    "region": "Kalamaria",
    "price_per_night": 103.0,
    "guests": 4,
    "beds": 2,
    "bedrooms": 2,
    "baths": 1,
    "is_superhost": false,
    "is_guest_favourite": true,
    "review_index": 5,
    "num_reviews": 12,
    "host_name": "Anna",
    "characteristics": [
      "Outdoor entertainment",
      "Great check-in experience",
      "Great location"
    ],
    "latitude": 40.5821,
    "longitude": 22.9517
  },
  {
    "url": "https://www.airbnb.com/rooms/804434792765255983",
    "region": "Kalamaria",
    "price_per_night": 106.8,
    "guests": 5,
    "beds": 3,
    "bedrooms": 2,
    "baths": 1,
    "is_superhost": true,
    "is_guest_favourite": true,
    "review_index": 4.8,
    "num_reviews": 20,
    "host_name": "Elena",
    "characteristics": [
      "Exceptional check-in experience"
    ],
    "latitude": 40.60036,
    "longitude": 22.96104
  },
  {
    "url": "https://www.airbnb.com/rooms/1484928184465741296",
    "region": "Kalamaria",
    "price_per_night": 62.2,
    "guests": 4,
    "beds": 2,
    "bedrooms": 1,
    "baths": 1,
    "is_superhost": false,
    "is_guest_favourite": false,
    "review_index": 5,
    "num_reviews": 4,
    "host_name": "Dimitrios",
    "characteristics": [
      "Exceptional check-in experience",
      "Self check-in",
      "Exceptional host communication"
    ],
    "latitude": 40.57668,
    "longitude": 22.96596
  },
  {
    "url": "https://www.airbnb.com/rooms/1193382193596190174",
    "region": "Kalamaria",
    "price_per_night": 83.0,
    "guests": 4,
    "beds": 1,
    "bedrooms": 1,
    "baths": 1,
    "is_superhost": true,
    "is_guest_favourite": true,
    "review_index": 5,
    "num_reviews": 6,
    "host_name": "Dimitriadis",
    "characteristics": [
      "Self check-in",
      "Unbeatable location"
    ],
    "latitude": 40.6044,
    "longitude": 22.9524
  },
  {
    "url": "https://www.airbnb.com/rooms/1502160318397233728",
    "region": "Kalamaria",
    "price_per_night": 135.4,
    "guests": 8,
    "beds": 4,
    "bedrooms": 3,
    "baths": 1,
    "is_superhost": true,
    "is_guest_favourite": false,
    "review_index": 4.67,
    "num_reviews": 6,
    "host_name": "BiNoBi",
    "characteristics": [
      "Self check-in",
      "At-home coffee"
    ],
    "latitude": 40.6032,
    "longitude": 22.9626
  },
  {
    "url": "https://www.airbnb.com/rooms/1022161653063943638",
    "region": "Kalamaria",
    "price_per_night": 89.2,
    "guests": 6,
    "beds": 4,
    "bedrooms": 2,
    "baths": 1,
    "is_superhost": false,
    "is_guest_favourite": false,
    "review_index": 4.94,
    "num_reviews": 18,
    "host_name": "Κωνσταντίνος",
    "characteristics": [
      "Self check-in",
      "Beautiful and walkable",
      "Park for free"
    ],
    "latitude": 40.5749,
    "longitude": 22.9525
  },
  {
    "url": "https://www.airbnb.com/rooms/41682746",
    "region": "Kalamaria",
    "price_per_night": 70.6,
    "guests": 2,
    "beds": 1,
    "bedrooms": 1,
    "baths": 1,
    "is_superhost": false,
    "is_guest_favourite": true,
    "review_index": 4.9,
    "num_reviews": 67,
    "host_name": "Κατερίνα",
    "characteristics": [
      "Self check-in",
      "City view",
      "Dedicated workspace"
    ],
    "latitude": 40.60959,
    "longitude": 22.95372
  },
  {
    "url": "https://www.airbnb.com/rooms/905109775025537047",
    "region": "Kalamaria",
    "price_per_night": 98.6,
    "guests": 3,
    "beds": 2,
    "bedrooms": 1,
    "baths": 1,
    "is_superhost": false,
    "is_guest_favourite": true,
    "review_index": 4.91,
    "num_reviews": 56,
    "host_name": "Παντελεημων",
    "characteristics": [
      "Unwind in the hot tub",
      "Self check-in",
      "Beautiful and walkable"
    ],
    "latitude": 40.5813,
    "longitude": 22.9512
  },
  {
    "url": "https://www.airbnb.com/rooms/869210908192555208",
    "region": "Kalamaria",
    "price_per_night": 51.8,
    "guests": 4,
    "beds": 2,
    "bedrooms": 1,
    "baths": 1,
    "is_superhost": true,
    "is_guest_favourite": false,
    "review_index": 4.77,
    "num_reviews": 139,
    "host_name": "Georgios",
    "characteristics": [
      "Self check-in",
      "Great location"
    ],
    "latitude": 40.6099,
    "longitude": 22.9602
  },
  {
    "url": "https://www.airbnb.com/rooms/27334714",
    "region": "Kalamaria",
    "price_per_night": 113.0,
    "guests": 4,
    "beds": 3,
    "bedrooms": 2,
    "baths": 1,
    "is_superhost": false,
    "is_guest_favourite": false,
    "review_index": 4.92,
    "num_reviews": 37,
    "host_name": "Ioannis",
    "characteristics": [
      "Self check-in",
      "Unbeatable location",
      "Park for free"
    ],
    "latitude": 40.5746,
    "longitude": 22.9635
  },
  {
    "url": "https://www.airbnb.com/rooms/13223162",
    "region": "Kalamaria",
    "price_per_night": 62.4,
    "guests": 3,
    "beds": 2,
    "bedrooms": 1,
    "baths": 1,
    "is_superhost": false,
    "is_guest_favourite": false,
    "review_index": 4.84,
    "num_reviews": 135,
    "host_name": "John",
    "characteristics": [
      "Exceptional check-in experience",
      "Unbeatable location",
      "Dedicated workspace"
    ],
    "latitude": 40.59188,
    "longitude": 22.96074
  },
  {
    "url": "https://www.airbnb.com/rooms/1113589788976872581",
    "region": "Kalamaria",
    "price_per_night": 136.4,
    "guests": 6,
    "beds": 3,
    "bedrooms": 3,
    "baths": 2,
    "is_superhost": false,
    "is_guest_favourite": true,
    "review_index": 4.97,
    "num_reviews": 31,
    "host_name": "Achilleas",
    "characteristics": [
      "Designed for staying cool",
      "Self check-in",
      "Calm and convenient location"
    ],
    "latitude": 40.58088,
    "longitude": 22.94898
  },
  {
    "url": "https://www.airbnb.com/rooms/1417576078792585328",
    "region": "Kalamaria",
    "price_per_night": 87.0,
    "guests": 4,
    "beds": 2,
    "bedrooms": 1,
    "baths": 1,
    "is_superhost": false,
    "is_guest_favourite": true,
    "review_index": 4.94,
    "num_reviews": 16,
    "host_name": "Zana",
    "characteristics": [
      "Exceptional check-in experience",
      "Exceptional host communication"
    ],
    "latitude": 40.587,
    "longitude": 22.9627
  },
  {
    "url": "https://www.airbnb.com/rooms/1162905538150174038",
    "region": "Kalamaria",
    "price_per_night": 224.4,
    "guests": 6,
    "beds": 3,
    "bedrooms": 2,
    "baths": 1,
    "is_superhost": false,
    "is_guest_favourite": false,
    "review_index": 4.81,
    "num_reviews": 21,
    "host_name": "Dimitris",
    "characteristics": [
      "Great check-in experience",
      "Great host communication"
    ],
    "latitude": 40.572,
    "longitude": 22.9574
  },
  {
    "url": "https://www.airbnb.com/rooms/1373752275012650318",
    "region": "Panorama",
    "price_per_night": 83.0,
    "guests": 4,
    "beds": 1,
    "bedrooms": 1,
    "baths": 1,
    "is_superhost": false,
    "is_guest_favourite": false,
    "review_index": 4.91,
    "num_reviews": 22,
    "host_name": "Hliaktis",
    "characteristics": [
      "Great check-in experience",
      "Peace and quiet",
      "Park for free"
    ],
    "latitude": 40.5821,
    "longitude": 23.0081
  },
  {
    "url": "https://www.airbnb.com/rooms/1167279854337132649",
    "region": "Kalamaria",
    "price_per_night": 640.4,
    "guests": 10,
    "beds": 6,
    "bedrooms": 5,
    "baths": 3,
    "is_superhost": false,
    "is_guest_favourite": false,
    "review_index": 4.75,
    "num_reviews": 4,
    "host_name": "Ioannis",
    "characteristics": [
      "Dive right in",
      "Self check-in",
      "Wake up to breakfast and coffee"
    ],
    "latitude": 40.5873,
    "longitude": 22.9677
  },
  {
    "url": "https://www.airbnb.com/rooms/37856646",
    "region": "Kalamaria",
    "price_per_night": 58.8,
    "guests": 2,
    "beds": 1,
    "bedrooms": 1,
    "baths": 1,
    "is_superhost": true,
    "is_guest_favourite": true,
    "review_index": 4.86,
    "num_reviews": 37,
    "host_name": "Κυριάκος",
    "characteristics": [],
    "latitude": 40.58971,
    "longitude": 22.96303
  },
  {
    "url": "https://www.airbnb.com/rooms/1325144244899540510",
    "region": "Kalamaria",
    "price_per_night": 273.0,
    "guests": 4,
    "beds": 2,
    "bedrooms": 1,
    "baths": 1,
    "is_superhost": true,
    "is_guest_favourite": false,
    "review_index": 4.8,
    "num_reviews": 46,
    "host_name": "BiNoBi",
    "characteristics": [
      "Self check-in",
      "At-home coffee"
    ],
    "latitude": 40.60626,
    "longitude": 22.96293
  },
  {
    "url": "https://www.airbnb.com/rooms/39055516",
    "region": "Kalamaria",
    "price_per_night": 57.6,
    "guests": 2,
    "beds": 1,
    "bedrooms": 1,
    "baths": 1,
    "is_superhost": true,
    "is_guest_favourite": false,
    "review_index": 4.91,
    "num_reviews": 159,
    "host_name": "Giorgos",
    "characteristics": [
      "Self check-in"
    ],
    "latitude": 40.6069,
    "longitude": 22.9641
  },
  {
    "url": "https://www.airbnb.com/rooms/39999720",
    "region": "Kalamaria",
    "price_per_night": 67.8,
    "guests": 3,
    "beds": 2,
    "bedrooms": 1,
    "baths": 1,
    "is_superhost": false,
    "is_guest_favourite": true,
    "review_index": 4.81,
    "num_reviews": 148,
    "host_name": "Aspasia",
    "characteristics": [
      "Self check-in",
      "Beach view",
      "Dedicated workspace"
    ],
    "latitude": 40.60721,
    "longitude": 22.95435
  },
  {
    "url": "https://www.airbnb.com/rooms/35886762",
    "region": "Kalamaria",
    "price_per_night": 108.2,
    "guests": 5,
    "beds": 2,
    "bedrooms": 2,
    "baths": 1,
    "is_superhost": false,
    "is_guest_favourite": true,
    "review_index": 4.98,
    "num_reviews": 80,
    "host_name": "Drosia",
    "characteristics": [
      "Top 1% of homes",
      "Exceptional check-in experience",
      "Peace and quiet"
    ],
    "latitude": 40.5847,
    "longitude": 22.9625
  },
  {
    "url": "https://www.airbnb.com/rooms/1422708957426419903",
    "region": "Kalamaria",
    "price_per_night": 87.0,
    "guests": 9,
    "beds": 4,
    "bedrooms": 2,
    "baths": 1,
    "is_superhost": true,
    "is_guest_favourite": true,
    "review_index": 4.92,
    "num_reviews": 12,
    "host_name": "Fotios",
    "characteristics": [
      "Self check-in",
      "At-home coffee"
    ],
    "latitude": 40.60228,
    "longitude": 22.95261
  },
  {
    "url": "https://www.airbnb.com/rooms/1437783262273604184",
    "region": "Kalamaria",
    "price_per_night": 62.4,
    "guests": 2,
    "beds": 1,
    "bedrooms": 1,
    "baths": 1,
    "is_superhost": false,
    "is_guest_favourite": false,
    "review_index": 4.71,
    "num_reviews": 7,
    "host_name": "Athanasios",
    "characteristics": [
      "Park for free"
    ],
    "latitude": 40.6023,
    "longitude": 22.9584
  },
  {
    "url": "https://www.airbnb.com/rooms/612936307930241782",
    "region": "Kalamaria",
    "price_per_night": 77.6,
    "guests": 5,
    "beds": 4,
    "bedrooms": 2,
    "baths": 1,
    "is_superhost": true,
    "is_guest_favourite": true,
    "review_index": 4.85,
    "num_reviews": 34,
    "host_name": "Dimitris",
    "characteristics": [
      "Great check-in experience",
      "Peace and quiet"
    ],
    "latitude": 40.5775,
    "longitude": 22.9524
  },
  {
    "url": "https://www.airbnb.com/rooms/838279000621170582",
    "region": "Kalamaria",
    "price_per_night": 16.8,
    "guests": 10,
    "beds": 5,
    "bedrooms": 4,
    "baths": 2,
    "is_superhost": false,
    "is_guest_favourite": false,
    "review_index": 4,
    "num_reviews": 15,
    "host_name": "Houseloft",
    "characteristics": [
      "Self check-in",
      "City view",
      "Dedicated workspace"
    ],
    "latitude": 40.5855,
    "longitude": 22.9535
  },
  {
    "url": "https://www.airbnb.com/rooms/1266358370676774810",
    "region": "Kalamaria",
    "price_per_night": 109.4,
    "guests": 6,
    "beds": 4,
    "bedrooms": 2,
    "baths": 2,
    "is_superhost": false,
    "is_guest_favourite": false,
    "review_index": 5,
    "num_reviews": 3,
    "host_name": "Dimitris",
    "characteristics": [
      "Self check-in",
      "Unbeatable location",
      "At-home coffee"
    ],
    "latitude": 40.6071,
    "longitude": 22.9546
  },
  {
    "url": "https://www.airbnb.com/rooms/1199179607411719704",
    "region": "Kalamaria",
    "price_per_night": 61.0,
    "guests": 2,
    "beds": 1,
    "bedrooms": 1,
    "baths": 1,
    "is_superhost": true,
    "is_guest_favourite": false,
    "review_index": 4.42,
    "num_reviews": 12,
    "host_name": "Dimitriadis",
    "characteristics": [
      "Exceptional check-in experience",
      "Self check-in"
    ],
    "latitude": 40.60268,
    "longitude": 22.96696
  },
  {
    "url": "https://www.airbnb.com/rooms/12070194",
    "region": "Kalamaria",
    "price_per_night": 144.6,
    "guests": 6,
    "beds": 4,
    "bedrooms": 3,
    "baths": 1,
    "is_superhost": false,
    "is_guest_favourite": true,
    "review_index": 4.92,
    "num_reviews": 12,
    "host_name": "Nikolaos",
    "characteristics": [
      "24-hour self check-in",
      "Furry friends welcome"
    ],
    "latitude": 40.5775,
    "longitude": 22.9514
  },
  {
    "url": "https://www.airbnb.com/rooms/1022424529912754488",
    "region": "Kalamaria",
    "price_per_night": 69.4,
    "guests": 4,
    "beds": 1,
    "bedrooms": 2,
    "baths": 1,
    "is_superhost": false,
    "is_guest_favourite": false,
    "review_index": 4.69,
    "num_reviews": 77,
    "host_name": "Efi",
    "characteristics": [
      "Self check-in",
      "At-home coffee",
      "Great host communication"
    ],
    "latitude": 40.60762,
    "longitude": 22.95361
  },
  {
    "url": "https://www.airbnb.com/rooms/1035452461140237010",
    "region": "Kalamaria",
    "price_per_night": 109.0,
    "guests": 4,
    "beds": 2,
    "bedrooms": 1,
    "baths": 1,
    "is_superhost": false,
    "is_guest_favourite": true,
    "review_index": 4.96,
    "num_reviews": 91,
    "host_name": "Matoula",
    "characteristics": [
      "Self check-in",
      "Peace and quiet",
      "City and bay views"
    ],
    "latitude": 40.5787,
    "longitude": 22.9454
  },
  {
    "url": "https://www.airbnb.com/rooms/34002063",
    "region": "Kalamaria",
    "price_per_night": 102.4,
    "guests": 6,
    "beds": 5,
    "bedrooms": 3,
    "baths": 2,
    "is_superhost": true,
    "is_guest_favourite": false,
    "review_index": 4.86,
    "num_reviews": 93,
    "host_name": "Akis",
    "characteristics": [
      "Self check-in",
      "Unbeatable location"
    ],
    "latitude": 40.59593,
    "longitude": 22.9548
  },
  {
    "url": "https://www.airbnb.com/rooms/872277020215370051",
    "region": "Kalamaria",
    "price_per_night": 172.2,
    "guests": 4,
    "beds": 2,
    "bedrooms": 1,
    "baths": 1,
    "is_superhost": false,
    "is_guest_favourite": false,
    "review_index": 4.67,
    "num_reviews": 36,
    "host_name": "Dimitris",
    "characteristics": [
      "Exceptional check-in experience",
      "Self check-in",
      "Fast wifi"
    ],
    "latitude": 40.5839,
    "longitude": 22.9536
  },
  {
    "url": "https://www.airbnb.com/rooms/1258616757421595768",
    "region": "Kalamaria",
    "price_per_night": 63.4,
    "guests": 3,
    "beds": 1,
    "bedrooms": 1,
    "baths": 1,
    "is_superhost": true,
    "is_guest_favourite": true,
    "review_index": 5,
    "num_reviews": 9,
    "host_name": "Dimitriadis",
    "characteristics": [
      "Exceptional check-in experience",
      "Self check-in"
    ],
    "latitude": 40.6094,
    "longitude": 22.9618
  },
  {
    "url": "https://www.airbnb.com/rooms/1311581485730478132",
    "region": "Neapoli-Sikies",
    "price_per_night": 68.0,
    "guests": 6,
    "beds": 4,
    "bedrooms": 2,
    "baths": 1,
    "is_superhost": true,
    "is_guest_favourite": true,
    "review_index": 4.96,
    "num_reviews": 52,
    "host_name": "Zafeirios",
    "characteristics": [
      "Top 10% of homes",
      "Self check-in"
    ],
    "latitude": 40.64806,
    "longitude": 22.94941
  },
  {
    "url": "https://www.airbnb.com/rooms/1237412934897925422",
    "region": "Kalamaria",
    "price_per_night": 133.8,
    "guests": 5,
    "beds": 3,
    "bedrooms": 2,
    "baths": 1,
    "is_superhost": false,
    "is_guest_favourite": true,
    "review_index": 5,
    "num_reviews": 35,
    "host_name": "Polyxeni",
    "characteristics": [
      "Top 10% of homes",
      "Self check-in",
      "Great location"
    ],
    "latitude": 40.57155,
    "longitude": 22.95939
  },
  {
    "url": "https://www.airbnb.com/rooms/1467549216981244425",
    "region": "Kalamaria",
    "price_per_night": 95.0,
    "guests": 2,
    "beds": 1,
    "bedrooms": 1,
    "baths": 1,
    "is_superhost": true,
    "is_guest_favourite": true,
    "review_index": 5,
    "num_reviews": 31,
    "host_name": "ProLiving Hospitality",
    "characteristics": [
      "Self check-in",
      "Great location"
    ],
    "latitude": 40.5955,
    "longitude": 22.95651
  },
  {
    "url": "https://www.airbnb.com/rooms/1199962214882531038",
    "region": "Kalamaria",
    "price_per_night": 121.6,
    "guests": 4,
    "beds": 3,
    "bedrooms": 2,
    "baths": 1,
    "is_superhost": true,
    "is_guest_favourite": false,
    "review_index": 4.71,
    "num_reviews": 7,
    "host_name": "Metaxenia'S Apartments",
    "characteristics": [
      "Self check-in",
      "At-home coffee"
    ],
    "latitude": 40.5728,
    "longitude": 22.9698
  },
  {
    "url": "https://www.airbnb.com/rooms/44453911",
    "region": "Kalamaria",
    "price_per_night": 65.6,
    "guests": 4,
    "beds": 2,
    "bedrooms": 1,
    "baths": 1,
    "is_superhost": false,
    "is_guest_favourite": true,
    "review_index": 4.93,
    "num_reviews": 177,
    "host_name": "Ελευθερία",
    "characteristics": [
      "Self check-in",
      "Dedicated workspace",
      "At-home coffee"
    ],
    "latitude": 40.60904,
    "longitude": 22.96009
  },
  {
    "url": "https://www.airbnb.com/rooms/1188912161127712653",
    "region": "Kalamaria",
    "price_per_night": 179.0,
    "guests": 5,
    "beds": 3,
    "bedrooms": 2,
    "baths": 2,
    "is_superhost": true,
    "is_guest_favourite": false,
    "review_index": 4.95,
    "num_reviews": 57,
    "host_name": "Ioannis",
    "characteristics": [],
    "latitude": 40.6047,
    "longitude": 22.95141
  },
  {
    "url": "https://www.airbnb.com/rooms/739561144312673003",
    "region": "Kalamaria",
    "price_per_night": 62.8,
    "guests": 3,
    "beds": 1,
    "bedrooms": 1,
    "baths": 1,
    "is_superhost": false,
    "is_guest_favourite": true,
    "review_index": 4.91,
    "num_reviews": 34,
    "host_name": "Αντώνιος-Πηνελόπη",
    "characteristics": [
      "Self check-in",
      "Peace and quiet",
      "Garden view"
    ],
    "latitude": 40.58539,
    "longitude": 22.96842
  },
  {
    "url": "https://www.airbnb.com/rooms/1399167959201537590",
    "region": "Kalamaria",
    "price_per_night": 248.0,
    "guests": 6,
    "beds": 3,
    "bedrooms": 3,
    "baths": 2,
    "is_superhost": true,
    "is_guest_favourite": false,
    "review_index": 4.63,
    "num_reviews": 8,
    "host_name": "ProLiving Hospitality",
    "characteristics": [
      "Exceptional check-in experience",
      "Self check-in"
    ],
    "latitude": 40.59355,
    "longitude": 22.95543
  },
  {
    "url": "https://www.airbnb.com/rooms/1233230388028871317",
    "region": "Kalamaria",
    "price_per_night": 90.2,
    "guests": 4,
    "beds": 3,
    "bedrooms": 1,
    "baths": 1,
    "is_superhost": false,
    "is_guest_favourite": true,
    "review_index": 4.97,
    "num_reviews": 35,
    "host_name": "Σωτηρία",
    "characteristics": [
      "Top 5% of homes",
      "Great check-in experience",
      "Peace and quiet"
    ],
    "latitude": 40.5856,
    "longitude": 22.9513
  },
  {
    "url": "https://www.airbnb.com/rooms/1445555142110423092",
    "region": "Kalamaria",
    "price_per_night": 88.6,
    "guests": 2,
    "beds": 1,
    "bedrooms": 1,
    "baths": 1,
    "is_superhost": true,
    "is_guest_favourite": false,
    "review_index": 4.81,
    "num_reviews": 16,
    "host_name": "ProLiving Hospitality",
    "characteristics": [
      "Self check-in"
    ],
    "latitude": 40.59538,
    "longitude": 22.9562
  },
  {
    "url": "https://www.airbnb.com/rooms/1039789857440586080",
    "region": "Kalamaria",
    "price_per_night": 78.4,
    "guests": 4,
    "beds": 2,
    "bedrooms": 1,
    "baths": 1,
    "is_superhost": true,
    "is_guest_favourite": true,
    "review_index": 4.92,
    "num_reviews": 113,
    "host_name": "Stella",
    "characteristics": [
      "Exceptional check-in experience",
      "Self check-in"
    ],
    "latitude": 40.6058,
    "longitude": 22.9562
  },
  {
    "url": "https://www.airbnb.com/rooms/1275830895020560381",
    "region": "Kalamaria",
    "price_per_night": 93.4,
    "guests": 2,
    "beds": 1,
    "bedrooms": 1,
    "baths": 1,
    "is_superhost": true,
    "is_guest_favourite": false,
    "review_index": 4.92,
    "num_reviews": 12,
    "host_name": "ProLiving Hospitality",
    "characteristics": [
      "Self check-in"
    ],
    "latitude": 40.5944,
    "longitude": 22.9556
  },
  {
    "url": "https://www.airbnb.com/rooms/1406603239360619989",
    "region": "Kalamaria",
    "price_per_night": 93.8,
    "guests": 4,
    "beds": 2,
    "bedrooms": 1,
    "baths": 1,
    "is_superhost": true,
    "is_guest_favourite": false,
    "review_index": 4.93,
    "num_reviews": 14,
    "host_name": "Panagiota",
    "characteristics": [
      "Exceptional check-in experience",
      "Walkable area"
    ],
    "latitude": 40.5836,
    "longitude": 22.95355
  },
  {
    "url": "https://www.airbnb.com/rooms/1137642504543134763",
    "region": "Kalamaria",
    "price_per_night": 85.6,
    "guests": 3,
    "beds": 2,
    "bedrooms": 1,
    "baths": 1,
    "is_superhost": true,
    "is_guest_favourite": false,
    "review_index": 4.65,
    "num_reviews": 17,
    "host_name": "Svetlana",
    "characteristics": [
      "Furry friends welcome"
    ],
    "latitude": 40.58181,
    "longitude": 22.94632
  },
  {
    "url": "https://www.airbnb.com/rooms/1103747592669314134",
    "region": "Kalamaria",
    "price_per_night": 109.4,
    "guests": 3,
    "beds": 1,
    "bedrooms": 1,
    "baths": 1,
    "is_superhost": true,
    "is_guest_favourite": false,
    "review_index": 4.95,
    "num_reviews": 19,
    "host_name": "Ioannis",
    "characteristics": [
      "Self check-in",
      "At-home coffee"
    ],
    "latitude": 40.5978,
    "longitude": 22.9526
  },
  {
    "url": "https://www.airbnb.com/rooms/29473490",
    "region": "Kalamaria",
    "price_per_night": 78.4,
    "guests": 5,
    "beds": 2,
    "bedrooms": 2,
    "baths": 1,
    "is_superhost": false,
    "is_guest_favourite": true,
    "review_index": 4.98,
    "num_reviews": 175,
    "host_name": "Stavros",
    "characteristics": [
      "Top 10% of homes",
      "Designed for staying cool",
      "Great check-in experience"
    ],
    "latitude": 40.57954,
    "longitude": 22.94674
  },
  {
    "url": "https://www.airbnb.com/rooms/39618935",
    "region": "Kalamaria",
    "price_per_night": 110.6,
    "guests": 5,
    "beds": 2,
    "bedrooms": 1,
    "baths": 1,
    "is_superhost": false,
    "is_guest_favourite": true,
    "review_index": 4.97,
    "num_reviews": 71,
    "host_name": "Ioannis",
    "characteristics": [
      "Top 10% of homes",
      "Self check-in",
      "Beautiful and walkable"
    ],
    "latitude": 40.5803,
    "longitude": 22.9524
  },
  {
    "url": "https://www.airbnb.com/rooms/1447153168315417660",
    "region": "Kalamaria",
    "price_per_night": 56.6,
    "guests": 2,
    "beds": 1,
    "bedrooms": 0,
    "baths": 1,
    "is_superhost": true,
    "is_guest_favourite": false,
    "review_index": 4.71,
    "num_reviews": 24,
    "host_name": "Δωρα",
    "characteristics": [
      "Self check-in",
      "At-home coffee"
    ],
    "latitude": 40.6047,
    "longitude": 22.9667
  },
  {
    "url": "https://www.airbnb.com/rooms/873057217901659120",
    "region": "Kalamaria",
    "price_per_night": 89.2,
    "guests": 4,
    "beds": 2,
    "bedrooms": 1,
    "baths": 1,
    "is_superhost": true,
    "is_guest_favourite": true,
    "review_index": 4.94,
    "num_reviews": 85,
    "host_name": "Innovation",
    "characteristics": [
      "Self check-in",
      "Mountain view"
    ],
    "latitude": 40.60491,
    "longitude": 22.95141
  },
  {
    "url": "https://www.airbnb.com/rooms/1374561716117876171",
    "region": "Neapoli-Sikies",
    "price_per_night": 98.6,
    "guests": 4,
    "beds": 2,
    "bedrooms": 2,
    "baths": 1,
    "is_superhost": false,
    "is_guest_favourite": true,
    "review_index": 4.99,
    "num_reviews": 104,
    "host_name": "Lia",
    "characteristics": [
      "Top 5% of homes",
      "Designed for staying cool",
      "Self check-in"
    ],
    "latitude": 40.64923,
    "longitude": 22.93592
  },
  {
    "url": "https://www.airbnb.com/rooms/1283349234473409928",
    "region": "Kalamaria",
    "price_per_night": 102.2,
    "guests": 4,
    "beds": 2,
    "bedrooms": 2,
    "baths": 1,
    "is_superhost": false,
    "is_guest_favourite": true,
    "review_index": 4.94,
    "num_reviews": 35,
    "host_name": "Νικολαος",
    "characteristics": [
      "Outdoor entertainment",
      "Self check-in",
      "At-home coffee"
    ],
    "latitude": 40.6076,
    "longitude": 22.9543
  },
  {
    "url": "https://www.airbnb.com/rooms/32809055",
    "region": "Kalamaria",
    "price_per_night": 93.8,
    "guests": 4,
    "beds": 2,
    "bedrooms": 2,
    "baths": 1,
    "is_superhost": false,
    "is_guest_favourite": true,
    "review_index": 4.95,
    "num_reviews": 157,
    "host_name": "Dimitrios",
    "characteristics": [
      "Self check-in",
      "Peace and quiet",
      "Park for free"
    ],
    "latitude": 40.59503,
    "longitude": 22.96206
  },
  {
    "url": "https://www.airbnb.com/rooms/1308875464077818976",
    "region": "Kalamaria",
    "price_per_night": 129.6,
    "guests": 6,
    "beds": 3,
    "bedrooms": 2,
    "baths": 1,
    "is_superhost": false,
    "is_guest_favourite": false,
    "review_index": 4.73,
    "num_reviews": 11,
    "host_name": "Alexandros",
    "characteristics": [
      "Self check-in",
      "Unbeatable location",
      "Park for free"
    ],
    "latitude": 40.5794,
    "longitude": 22.949
  },
  {
    "url": "https://www.airbnb.com/rooms/1283822232941278815",
    "region": "Kalamaria",
    "price_per_night": 129.4,
    "guests": 4,
    "beds": 2,
    "bedrooms": 1,
    "baths": 1,
    "is_superhost": false,
    "is_guest_favourite": true,
    "review_index": 5,
    "num_reviews": 6,
    "host_name": "Maria",
    "characteristics": [
      "Self check-in",
      "Unbeatable location",
      "Park for free"
    ],
    "latitude": 40.57586,
    "longitude": 22.95018
  },
  {
    "url": "https://www.airbnb.com/rooms/50945050",
    "region": "Kalamaria",
    "price_per_night": 77.6,
    "guests": 3,
    "beds": 2,
    "bedrooms": 1,
    "baths": 1,
    "is_superhost": true,
    "is_guest_favourite": false,
    "review_index": 4.89,
    "num_reviews": 65,
    "host_name": "Dimitrios",
    "characteristics": [
      "Exceptional check-in experience",
      "Self check-in"
    ],
    "latitude": 40.59126,
    "longitude": 22.96709
  },
  {
    "url": "https://www.airbnb.com/rooms/19929641",
    "region": "Kalamaria",
    "price_per_night": 146.4,
    "guests": 5,
    "beds": 3,
    "bedrooms": 2,
    "baths": 1,
    "is_superhost": false,
    "is_guest_favourite": true,
    "review_index": 4.94,
    "num_reviews": 89,
    "host_name": "Giorgos",
    "characteristics": [
      "Exceptional check-in experience",
      "Beautiful and walkable",
      "At-home coffee"
    ],
    "latitude": 40.5742,
    "longitude": 22.9496
  },
  {
    "url": "https://www.airbnb.com/rooms/46509488",
    "region": "Kalamaria",
    "price_per_night": 115.4,
    "guests": 4,
    "beds": 2,
    "bedrooms": 2,
    "baths": 1,
    "is_superhost": false,
    "is_guest_favourite": true,
    "review_index": 4.9,
    "num_reviews": 63,
    "host_name": "Theofanis",
    "characteristics": [
      "Awards won",
      "Self check-in",
      "Peace and quiet"
    ],
    "latitude": 40.58873,
    "longitude": 22.94847
  },
  {
    "url": "https://www.airbnb.com/rooms/1047022091690010990",
    "region": "Kalamaria",
    "price_per_night": 73.6,
    "guests": 4,
    "beds": 2,
    "bedrooms": 1,
    "baths": 1,
    "is_superhost": true,
    "is_guest_favourite": false,
    "review_index": 4.91,
    "num_reviews": 85,
    "host_name": "Κωνσταντίνος",
    "characteristics": [
      "Self check-in",
      "Great location"
    ],
    "latitude": 40.6053,
    "longitude": 22.9537
  },
  {
    "url": "https://www.airbnb.com/rooms/1094307597269369281",
    "region": "Kalamaria",
    "price_per_night": 102.2,
    "guests": 5,
    "beds": 3,
    "bedrooms": 2,
    "baths": 1,
    "is_superhost": false,
    "is_guest_favourite": true,
    "review_index": 4.88,
    "num_reviews": 34,
    "host_name": "Maria",
    "characteristics": [
      "Exceptional check-in experience",
      "Peace and quiet",
      "Park for free"
    ],
    "latitude": 40.5805,
    "longitude": 22.9489
  },
  {
    "url": "https://www.airbnb.com/rooms/1432642133349673532",
    "region": "Kalamaria",
    "price_per_night": 86.8,
    "guests": 3,
    "beds": 1,
    "bedrooms": 1,
    "baths": 1,
    "is_superhost": false,
    "is_guest_favourite": false,
    "review_index": 4.67,
    "num_reviews": 9,
    "host_name": "Angel'S Brand New Studio",
    "characteristics": [],
    "latitude": 40.5886,
    "longitude": 22.9634
  },
  {
    "url": "https://www.airbnb.com/rooms/1090413474942441708",
    "region": "Kalamaria",
    "price_per_night": 74.4,
    "guests": 4,
    "beds": 1,
    "bedrooms": 1,
    "baths": 1,
    "is_superhost": true,
    "is_guest_favourite": true,
    "review_index": 4.93,
    "num_reviews": 61,
    "host_name": "Dimitris",
    "characteristics": [
      "Exceptional check-in experience",
      "Walkable area"
    ],
    "latitude": 40.5847,
    "longitude": 22.9476
  },
  {
    "url": "https://www.airbnb.com/rooms/886970152977022616",
    "region": "Kalamaria",
    "price_per_night": 77.4,
    "guests": 3,
    "beds": 1,
    "bedrooms": 2,
    "baths": 1,
    "is_superhost": false,
    "is_guest_favourite": false,
    "review_index": 4.81,
    "num_reviews": 86,
    "host_name": "Φιλιππια",
    "characteristics": [
      "Self check-in",
      "Dedicated workspace",
      "At-home coffee"
    ],
    "latitude": 40.60216,
    "longitude": 22.95554
  },
  {
    "url": "https://www.airbnb.com/rooms/1043232795819424465",
    "region": "Kalamaria",
    "price_per_night": 58.8,
    "guests": 4,
    "beds": 1,
    "bedrooms": 1,
    "baths": 1,
    "is_superhost": false,
    "is_guest_favourite": false,
    "review_index": 4.71,
    "num_reviews": 56,
    "host_name": "Αφροδίτη",
    "characteristics": [
      "Self check-in",
      "At-home coffee",
      "Furry friends welcome"
    ],
    "latitude": 40.5837,
    "longitude": 22.9514
  },
  {
    "url": "https://www.airbnb.com/rooms/1076732401899245061",
    "region": "Kalamaria",
    "price_per_night": 117.6,
    "guests": 5,
    "beds": 2,
    "bedrooms": 2,
    "baths": 1,
    "is_superhost": true,
    "is_guest_favourite": false,
    "review_index": 4.9,
    "num_reviews": 10,
    "host_name": "Μαρια",
    "characteristics": [],
    "latitude": 40.58182,
    "longitude": 22.95557
  },
  {
    "url": "https://www.airbnb.com/rooms/1447723147900850232",
    "region": "Kalamaria",
    "price_per_night": 88.6,
    "guests": 2,
    "beds": 1,
    "bedrooms": 1,
    "baths": 1,
    "is_superhost": true,
    "is_guest_favourite": true,
    "review_index": 4.9,
    "num_reviews": 30,
    "host_name": "ProLiving Hospitality",
    "characteristics": [
      "Self check-in",
      "Great location"
    ],
    "latitude": 40.59528,
    "longitude": 22.95653
  },
  {
    "url": "https://www.airbnb.com/rooms/1131689501031306684",
    "region": "Kalamaria",
    "price_per_night": 64.8,
    "guests": 3,
    "beds": 2,
    "bedrooms": 1,
    "baths": 1,
    "is_superhost": true,
    "is_guest_favourite": false,
    "review_index": 4.74,
    "num_reviews": 43,
    "host_name": "Panagiotis",
    "characteristics": [
      "Great check-in experience",
      "At-home coffee"
    ],
    "latitude": 40.6055,
    "longitude": 22.9525
  },
  {
    "url": "https://www.airbnb.com/rooms/1445524137833187566",
    "region": "Kalamaria",
    "price_per_night": 96.0,
    "guests": 2,
    "beds": 1,
    "bedrooms": 1,
    "baths": 1,
    "is_superhost": true,
    "is_guest_favourite": false,
    "review_index": 4.85,
    "num_reviews": 20,
    "host_name": "ProLiving Hospitality",
    "characteristics": [
      "Great check-in experience",
      "Self check-in"
    ],
    "latitude": 40.59501,
    "longitude": 22.95488
  },
  {
    "url": "https://www.airbnb.com/rooms/664124568111157227",
    "region": "Kalamaria",
    "price_per_night": 82.2,
    "guests": 2,
    "beds": 2,
    "bedrooms": 1,
    "baths": 1,
    "is_superhost": false,
    "is_guest_favourite": true,
    "review_index": 4.94,
    "num_reviews": 18,
    "host_name": "Sofia",
    "characteristics": [
      "Exceptional check-in experience",
      "Unbeatable location",
      "Dedicated workspace"
    ],
    "latitude": 40.5734,
    "longitude": 22.9555
  },
  {
    "url": "https://www.airbnb.com/rooms/881380540839682750",
    "region": "Kalamaria",
    "price_per_night": 94.0,
    "guests": 4,
    "beds": 2,
    "bedrooms": 1,
    "baths": 1,
    "is_superhost": false,
    "is_guest_favourite": true,
    "review_index": 4.93,
    "num_reviews": 14,
    "host_name": "Αγάπη",
    "characteristics": [
      "Self check-in",
      "Great for remote work",
      "At-home coffee"
    ],
    "latitude": 40.5862,
    "longitude": 22.9563
  },
  {
    "url": "https://www.airbnb.com/rooms/53042535",
    "region": "Kalamaria",
    "price_per_night": 94.0,
    "guests": 3,
    "beds": 1,
    "bedrooms": 1,
    "baths": 1,
    "is_superhost": true,
    "is_guest_favourite": false,
    "review_index": 4.85,
    "num_reviews": 68,
    "host_name": "Ελευθερία",
    "characteristics": [
      "Self check-in",
      "Fast wifi"
    ],
    "latitude": 40.584,
    "longitude": 22.9533
  },
  {
    "url": "https://www.airbnb.com/rooms/24886424",
    "region": "Panorama",
    "price_per_night": 68.4,
    "guests": 4,
    "beds": 2,
    "bedrooms": 1,
    "baths": 1,
    "is_superhost": false,
    "is_guest_favourite": true,
    "review_index": 4.95,
    "num_reviews": 179,
    "host_name": "Μαρία",
    "characteristics": [
      "Self check-in",
      "City view",
      "Dedicated workspace"
    ],
    "latitude": 40.60119,
    "longitude": 22.99372
  },
  {
    "url": "https://www.airbnb.com/rooms/896451656986762457",
    "region": "Kalamaria",
    "price_per_night": 60.0,
    "guests": 3,
    "beds": 2,
    "bedrooms": 1,
    "baths": 1,
    "is_superhost": false,
    "is_guest_favourite": false,
    "review_index": 4.86,
    "num_reviews": 57,
    "host_name": "Christina",
    "characteristics": [
      "Great check-in experience",
      "Self check-in",
      "Exceptional host communication"
    ],
    "latitude": 40.58796,
    "longitude": 22.96472
  },
  {
    "url": "https://www.airbnb.com/rooms/1435439535659642591",
    "region": "Kalamaria",
    "price_per_night": 104.2,
    "guests": 3,
    "beds": 1,
    "bedrooms": 1,
    "baths": 1,
    "is_superhost": false,
    "is_guest_favourite": true,
    "review_index": 5,
    "num_reviews": 18,
    "host_name": "Vasileios",
    "characteristics": [
      "Top 5% of homes",
      "Self check-in",
      "Walkable area"
    ],
    "latitude": 40.583,
    "longitude": 22.951
  },
  {
    "url": "https://www.airbnb.com/rooms/1077312705037752777",
    "region": "Kalamaria",
    "price_per_night": 73.4,
    "guests": 4,
    "beds": 2,
    "bedrooms": 2,
    "baths": 1,
    "is_superhost": true,
    "is_guest_favourite": false,
    "review_index": 4.77,
    "num_reviews": 30,
    "host_name": "Lamprinos",
    "characteristics": [
      "Self check-in",
      "At-home coffee"
    ],
    "latitude": 40.60422,
    "longitude": 22.95483
  },
  {
    "url": "https://www.airbnb.com/rooms/995615721255872469",
    "region": "Kalamaria",
    "price_per_night": 112.6,
    "guests": 5,
    "beds": 3,
    "bedrooms": 2,
    "baths": 1,
    "is_superhost": false,
    "is_guest_favourite": true,
    "review_index": 5,
    "num_reviews": 38,
    "host_name": "Δεσποινα",
    "characteristics": [
      "Designed for staying cool",
      "Self check-in",
      "Park view"
    ],
    "latitude": 40.5976,
    "longitude": 22.9653
  },
  {
    "url": "https://www.airbnb.com/rooms/963545448125905545",
    "region": "Kalamaria",
    "price_per_night": 87.6,
    "guests": 4,
    "beds": 2,
    "bedrooms": 1,
    "baths": 1,
    "is_superhost": true,
    "is_guest_favourite": false,
    "review_index": 4.9,
    "num_reviews": 50,
    "host_name": "Sky Nomads",
    "characteristics": [
      "Self check-in",
      "Fast wifi"
    ],
    "latitude": 40.5965,
    "longitude": 22.9539
  },
  {
    "url": "https://www.airbnb.com/rooms/1256422497835703813",
    "region": "Kalamaria",
    "price_per_night": 63.6,
    "guests": 3,
    "beds": 1,
    "bedrooms": 1,
    "baths": 1,
    "is_superhost": false,
    "is_guest_favourite": false,
    "review_index": 4.5,
    "num_reviews": 16,
    "host_name": "Αναστάσιος",
    "characteristics": [
      "Great check-in experience",
      "Exceptional host communication"
    ],
    "latitude": 40.5984,
    "longitude": 22.9567
  },
  {
    "url": "https://www.airbnb.com/rooms/656307846355454735",
    "region": "Kalamaria",
    "price_per_night": 75.4,
    "guests": 4,
    "beds": 2,
    "bedrooms": 1,
    "baths": 1,
    "is_superhost": false,
    "is_guest_favourite": true,
    "review_index": 4.92,
    "num_reviews": 50,
    "host_name": "Παναγιωτης",
    "characteristics": [
      "Self check-in",
      "Vibrant neighborhood",
      "Mountain and park views"
    ],
    "latitude": 40.603,
    "longitude": 22.9689
  },
  {
    "url": "https://www.airbnb.com/rooms/31171950",
    "region": "Kalamaria",
    "price_per_night": 78.0,
    "guests": 4,
    "beds": 2,
    "bedrooms": 1,
    "baths": 1,
    "is_superhost": false,
    "is_guest_favourite": true,
    "review_index": 4.75,
    "num_reviews": 71,
    "host_name": "Maria",
    "characteristics": [
      "Self check-in",
      "Unbeatable location",
      "Dedicated workspace"
    ],
    "latitude": 40.5985,
    "longitude": 22.9554
  },
  {
    "url": "https://www.airbnb.com/rooms/1194381930949105375",
    "region": "Kalamaria",
    "price_per_night": 58.8,
    "guests": 2,
    "beds": 1,
    "bedrooms": 1,
    "baths": 1,
    "is_superhost": true,
    "is_guest_favourite": true,
    "review_index": 4.89,
    "num_reviews": 19,
    "host_name": "Κυριάκος",
    "characteristics": [
      "Exceptional check-in experience",
      "Unbeatable location"
    ],
    "latitude": 40.5887,
    "longitude": 22.9627
  },
  {
    "url": "https://www.airbnb.com/rooms/1184545007680194563",
    "region": "Kalamaria",
    "price_per_night": 20.8,
    "guests": 6,
    "beds": 3,
    "bedrooms": 2,
    "baths": 2,
    "is_superhost": false,
    "is_guest_favourite": false,
    "review_index": 4.8,
    "num_reviews": 5,
    "host_name": "George",
    "characteristics": [
      "Outdoor entertainment",
      "Self check-in",
      "At-home coffee"
    ],
    "latitude": 40.5975,
    "longitude": 22.9528
  },
  {
    "url": "https://www.airbnb.com/rooms/1284339171038789894",
    "region": "Kalamaria",
    "price_per_night": 88.0,
    "guests": 4,
    "beds": 2,
    "bedrooms": 1,
    "baths": 1,
    "is_superhost": false,
    "is_guest_favourite": false,
    "review_index": 4.79,
    "num_reviews": 73,
    "host_name": "Ano Poli Studios",
    "characteristics": [
      "Great check-in experience",
      "Self check-in",
      "At-home coffee"
    ],
    "latitude": 40.6024,
    "longitude": 22.9575
  },
  {
    "url": "https://www.airbnb.com/rooms/1526777728504563144",
    "region": "Kalamaria",
    "price_per_night": 93.0,
    "guests": 3,
    "beds": 2,
    "bedrooms": 1,
    "baths": 1,
    "is_superhost": false,
    "is_guest_favourite": false,
    "review_index": 4.83,
    "num_reviews": 6,
    "host_name": "Δημήτριος",
    "characteristics": [
      "Self check-in",
      "Great host communication"
    ],
    "latitude": 40.6033,
    "longitude": 22.9545
  },
  {
    "url": "https://www.airbnb.com/rooms/1481768686276274608",
    "region": "Kalamaria",
    "price_per_night": 107.8,
    "guests": 5,
    "beds": 3,
    "bedrooms": 2,
    "baths": 1,
    "is_superhost": true,
    "is_guest_favourite": false,
    "review_index": 4.82,
    "num_reviews": 28,
    "host_name": "Lidor",
    "characteristics": [
      "Self check-in",
      "Furry friends welcome"
    ],
    "latitude": 40.60705,
    "longitude": 22.95775
  },
  {
    "url": "https://www.airbnb.com/rooms/963577323616360594",
    "region": "Kalamaria",
    "price_per_night": 87.6,
    "guests": 4,
    "beds": 2,
    "bedrooms": 1,
    "baths": 1,
    "is_superhost": true,
    "is_guest_favourite": true,
    "review_index": 4.98,
    "num_reviews": 45,
    "host_name": "Sky Nomads",
    "characteristics": [
      "Self check-in",
      "Great for remote work"
    ],
    "latitude": 40.5965,
    "longitude": 22.9539
  },
  {
    "url": "https://www.airbnb.com/rooms/1039850489591372433",
    "region": "Kalamaria",
    "price_per_night": 64.2,
    "guests": 5,
    "beds": 2,
    "bedrooms": 1,
    "baths": 1,
    "is_superhost": false,
    "is_guest_favourite": false,
    "review_index": 4.87,
    "num_reviews": 112,
    "host_name": "Mario",
    "characteristics": [
      "Self check-in",
      "At-home coffee",
      "Great host communication"
    ],
    "latitude": 40.6097,
    "longitude": 22.9629
  },
  {
    "url": "https://www.airbnb.com/rooms/602468305333031997",
    "region": "Panorama",
    "price_per_night": 77.0,
    "guests": 5,
    "beds": 2,
    "bedrooms": 1,
    "baths": 1,
    "is_superhost": false,
    "is_guest_favourite": false,
    "review_index": 4.81,
    "num_reviews": 32,
    "host_name": "Petros",
    "characteristics": [
      "Self check-in",
      "Bay view",
      "Dedicated workspace"
    ],
    "latitude": 40.6009,
    "longitude": 22.9945
  },
  {
    "url": "https://www.airbnb.com/rooms/1139083604377325064",
    "region": "Panorama",
    "price_per_night": 143.8,
    "guests": 4,
    "beds": 2,
    "bedrooms": 1,
    "baths": 1,
    "is_superhost": false,
    "is_guest_favourite": true,
    "review_index": 5,
    "num_reviews": 15,
    "host_name": "Νίκος",
    "characteristics": [
      "Top 5% of homes",
      "Exceptional check-in experience",
      "Unbeatable location"
    ],
    "latitude": 40.60786,
    "longitude": 22.99073
  },
  {
    "url": "https://www.airbnb.com/rooms/991310321156700549",
    "region": "Panorama",
    "price_per_night": 69.0,
    "guests": 2,
    "beds": 2,
    "bedrooms": 0,
    "baths": 1,
    "is_superhost": false,
    "is_guest_favourite": true,
    "review_index": 4.98,
    "num_reviews": 59,
    "host_name": "Μαρία",
    "characteristics": [
      "Top 10% of homes",
      "Self check-in",
      "Garden view"
    ],
    "latitude": 40.6012,
    "longitude": 22.9918
  },
  {
    "url": "https://www.airbnb.com/rooms/41641447",
    "region": "Panorama",
    "price_per_night": 97.8,
    "guests": 4,
    "beds": 2,
    "bedrooms": 1,
    "baths": 1,
    "is_superhost": true,
    "is_guest_favourite": true,
    "review_index": 4.91,
    "num_reviews": 217,
    "host_name": "Moris",
    "characteristics": [
      "Self check-in",
      "Park for free"
    ],
    "latitude": 40.60181,
    "longitude": 22.992
  },
  {
    "url": "https://www.airbnb.com/rooms/15819752",
    "region": "Panorama",
    "price_per_night": 146.2,
    "guests": 5,
    "beds": 3,
    "bedrooms": 2,
    "baths": 2,
    "is_superhost": false,
    "is_guest_favourite": false,
    "review_index": 4.85,
    "num_reviews": 13,
    "host_name": "Θεοδοσία",
    "characteristics": [
      "Self check-in",
      "Peace and quiet",
      "Garden view"
    ],
    "latitude": 40.58525,
    "longitude": 23.0274
  },
  {
    "url": "https://www.airbnb.com/rooms/34087696",
    "region": "Panorama",
    "price_per_night": 108.0,
    "guests": 6,
    "beds": 4,
    "bedrooms": 2,
    "baths": 1,
    "is_superhost": false,
    "is_guest_favourite": true,
    "review_index": 4.92,
    "num_reviews": 102,
    "host_name": "Νίκος Και Ελένη",
    "characteristics": [
      "Top 10% of homes",
      "Designed for staying cool",
      "Self check-in"
    ],
    "latitude": 40.60202,
    "longitude": 22.99675
  },
  {
    "url": "https://www.airbnb.com/rooms/51327741",
    "region": "Panorama",
    "price_per_night": 91.4,
    "guests": 2,
    "beds": 1,
    "bedrooms": 1,
    "baths": 1,
    "is_superhost": true,
    "is_guest_favourite": false,
    "review_index": 4.94,
    "num_reviews": 109,
    "host_name": "Moris",
    "characteristics": [
      "Self check-in",
      "Park for free"
    ],
    "latitude": 40.60291,
    "longitude": 22.99282
  },
  {
    "url": "https://www.airbnb.com/rooms/799081412191067590",
    "region": "Panorama",
    "price_per_night": 108.2,
    "guests": 4,
    "beds": 4,
    "bedrooms": 2,
    "baths": 1,
    "is_superhost": false,
    "is_guest_favourite": true,
    "review_index": 5,
    "num_reviews": 15,
    "host_name": "Κώστας",
    "characteristics": [
      "Outdoor entertainment",
      "Self check-in",
      "Mountain and garden views"
    ],
    "latitude": 40.599,
    "longitude": 23.0042
  },
  {
    "url": "https://www.airbnb.com/rooms/1076203415974029292",
    "region": "Panorama",
    "price_per_night": 102.2,
    "guests": 5,
    "beds": 2,
    "bedrooms": 2,
    "baths": 1,
    "is_superhost": false,
    "is_guest_favourite": false,
    "review_index": 5,
    "num_reviews": 9,
    "host_name": "Dimitrios",
    "characteristics": [
      "Self check-in",
      "Peace and quiet",
      "Garden view"
    ],
    "latitude": 40.5844,
    "longitude": 23.027
  },
  {
    "url": "https://www.airbnb.com/rooms/622816584281540932",
    "region": "Panorama",
    "price_per_night": 127.8,
    "guests": 6,
    "beds": 3,
    "bedrooms": 2,
    "baths": 1,
    "is_superhost": true,
    "is_guest_favourite": true,
    "review_index": 4.9,
    "num_reviews": 96,
    "host_name": "Moris",
    "characteristics": [
      "Self check-in",
      "Dedicated workspace"
    ],
    "latitude": 40.6023,
    "longitude": 22.9926
  },
  {
    "url": "https://www.airbnb.com/rooms/46323295",
    "region": "Panorama",
    "price_per_night": 101.2,
    "guests": 2,
    "beds": 1,
    "bedrooms": 1,
    "baths": 1,
    "is_superhost": false,
    "is_guest_favourite": false,
    "review_index": 4.5,
    "num_reviews": 4,
    "host_name": "Marina",
    "characteristics": [
      "At-home coffee"
    ],
    "latitude": 40.58298,
    "longitude": 23.03069
  },
  {
    "url": "https://www.airbnb.com/rooms/720237052332915564",
    "region": "Panorama",
    "price_per_night": 65.0,
    "guests": 2,
    "beds": 1,
    "bedrooms": 1,
    "baths": 1,
    "is_superhost": false,
    "is_guest_favourite": false,
    "review_index": 4.69,
    "num_reviews": 51,
    "host_name": "Petros",
    "characteristics": [
      "Self check-in"
    ],
    "latitude": 40.60167,
    "longitude": 22.99373
  },
  {
    "url": "https://www.airbnb.com/rooms/1489660426607813584",
    "region": "Panorama",
    "price_per_night": 94.2,
    "guests": 5,
    "beds": 3,
    "bedrooms": 2,
    "baths": 1,
    "is_superhost": false,
    "is_guest_favourite": true,
    "review_index": 5,
    "num_reviews": 6,
    "host_name": "Kyriakos",
    "characteristics": [
      "Self check-in",
      "Peace and quiet",
      "Dedicated workspace"
    ],
    "latitude": 40.60178,
    "longitude": 22.99768
  },
  {
    "url": "https://www.airbnb.com/rooms/1340008558734251123",
    "region": "Panorama",
    "price_per_night": 49.6,
    "guests": 5,
    "beds": 3,
    "bedrooms": 1,
    "baths": 1,
    "is_superhost": false,
    "is_guest_favourite": false,
    "review_index": 3.4,
    "num_reviews": 5,
    "host_name": "Γεωργιος",
    "characteristics": [
      "Self check-in",
      "Great host communication"
    ],
    "latitude": 40.5755,
    "longitude": 23.0104
  },
  {
    "url": "https://www.airbnb.com/rooms/31249126",
    "region": "Panorama",
    "price_per_night": 154.0,
    "guests": 7,
    "beds": 5,
    "bedrooms": 3,
    "baths": 1,
    "is_superhost": false,
    "is_guest_favourite": true,
    "review_index": 4.98,
    "num_reviews": 90,
    "host_name": "Λουκία",
    "characteristics": [
      "Top 5% of homes",
      "Exceptional check-in experience",
      "Beautiful area"
    ],
    "latitude": 40.5791,
    "longitude": 23.0234
  },
  {
    "url": "https://www.airbnb.com/rooms/1310291711837630300",
    "region": "Panorama",
    "price_per_night": 283.6,
    "guests": 16,
    "beds": 10,
    "bedrooms": 7,
    "baths": 2,
    "is_superhost": false,
    "is_guest_favourite": false,
    "review_index": 4.53,
    "num_reviews": 17,
    "host_name": "Γεωργιος",
    "characteristics": [
      "Self check-in",
      "Park for free",
      "Great host communication"
    ],
    "latitude": 40.5755,
    "longitude": 23.0104
  },
  {
    "url": "https://www.airbnb.com/rooms/1561638187266795249",
    "region": "Kalamaria",
    "price_per_night": 154.0,
    "guests": 7,
    "beds": 4,
    "bedrooms": 3,
    "baths": 2,
    "is_superhost": false,
    "is_guest_favourite": true,
    "review_index": 5,
    "num_reviews": 5,
    "host_name": "Dimitra",
    "characteristics": [
      "Exceptional check-in experience",
      "Unbeatable location",
      "Exceptional host communication"
    ],
    "latitude": 40.60732,
    "longitude": 22.95769
  },
  {
    "url": "https://www.airbnb.com/rooms/1488572340470210675",
    "region": "Neapoli-Sikies",
    "price_per_night": 76.4,
    "guests": 5,
    "beds": 3,
    "bedrooms": 2,
    "baths": 1,
    "is_superhost": false,
    "is_guest_favourite": true,
    "review_index": 4.85,
    "num_reviews": 13,
    "host_name": "Ελενα",
    "characteristics": [
      "Self check-in",
      "Great location",
      "At-home coffee"
    ],
    "latitude": 40.65427,
    "longitude": 22.9535
  },
  {
    "url": "https://www.airbnb.com/rooms/1566147500951721467",
    "region": "Neapoli-Sikies",
    "price_per_night": 96.2,
    "guests": 5,
    "beds": 3,
    "bedrooms": 1,
    "baths": 1,
    "is_superhost": false,
    "is_guest_favourite": false,
    "review_index": 4.89,
    "num_reviews": 9,
    "host_name": "Giwrgos",
    "characteristics": [
      "Self check-in",
      "Exceptional host communication",
      "Furry friends welcome"
    ],
    "latitude": 40.6466,
    "longitude": 22.9402
  },
  {
    "url": "https://www.airbnb.com/rooms/1267272309892940394",
    "region": "Neapoli-Sikies",
    "price_per_night": 150.2,
    "guests": 4,
    "beds": 3,
    "bedrooms": 3,
    "baths": 1,
    "is_superhost": true,
    "is_guest_favourite": true,
    "review_index": 5,
    "num_reviews": 6,
    "host_name": "Θεόδωρος",
    "characteristics": [
      "Self check-in"
    ],
    "latitude": 40.6556,
    "longitude": 22.9533
  },
  {
    "url": "https://www.airbnb.com/rooms/960859870312683481",
    "region": "Neapoli-Sikies",
    "price_per_night": 61.6,
    "guests": 2,
    "beds": 1,
    "bedrooms": 1,
    "baths": 1,
    "is_superhost": true,
    "is_guest_favourite": false,
    "review_index": 4.88,
    "num_reviews": 26,
    "host_name": "Σεβη",
    "characteristics": [
      "Great check-in experience",
      "Self check-in"
    ],
    "latitude": 40.6535,
    "longitude": 22.9535
  },
  {
    "url": "https://www.airbnb.com/rooms/767420206021641367",
    "region": "Neapoli-Sikies",
    "price_per_night": 77.6,
    "guests": 5,
    "beds": 3,
    "bedrooms": 2,
    "baths": 1,
    "is_superhost": true,
    "is_guest_favourite": true,
    "review_index": 4.92,
    "num_reviews": 37,
    "host_name": "Effie",
    "characteristics": [
      "Self check-in"
    ],
    "latitude": 40.6523,
    "longitude": 22.9546
  },
  {
    "url": "https://www.airbnb.com/rooms/1356572586407565620",
    "region": "Neapoli-Sikies",
    "price_per_night": 75.4,
    "guests": 7,
    "beds": 3,
    "bedrooms": 3,
    "baths": 1,
    "is_superhost": false,
    "is_guest_favourite": false,
    "review_index": 4.75,
    "num_reviews": 8,
    "host_name": "Jk",
    "characteristics": [
      "Exceptional check-in experience",
      "Self check-in"
    ],
    "latitude": 40.6474,
    "longitude": 22.9606
  },
  {
    "url": "https://www.airbnb.com/rooms/13240426",
    "region": "Neapoli-Sikies",
    "price_per_night": 99.2,
    "guests": 10,
    "beds": 6,
    "bedrooms": 2,
    "baths": 1,
    "is_superhost": false,
    "is_guest_favourite": false,
    "review_index": 4.77,
    "num_reviews": 216,
    "host_name": "Κώστας",
    "characteristics": [
      "24-hour self check-in",
      "City view",
      "Dedicated workspace"
    ],
    "latitude": 40.652,
    "longitude": 22.9484
  },
  {
    "url": "https://www.airbnb.com/rooms/1551481788435101321",
    "region": "Neapoli-Sikies",
    "price_per_night": 77.0,
    "guests": 5,
    "beds": 3,
    "bedrooms": 2,
    "baths": 1,
    "is_superhost": true,
    "is_guest_favourite": false,
    "review_index": 4.71,
    "num_reviews": 7,
    "host_name": "Marinela",
    "characteristics": [],
    "latitude": 40.6473,
    "longitude": 22.9417
  },
  {
    "url": "https://www.airbnb.com/rooms/1604449184773895331",
    "region": "Neapoli-Sikies",
    "price_per_night": 58.8,
    "guests": 3,
    "beds": 1,
    "bedrooms": 1,
    "baths": 1,
    "is_superhost": false,
    "is_guest_favourite": false,
    "review_index": 5,
    "num_reviews": 3,
    "host_name": "Alsos Home",
    "characteristics": [
      "Exceptional check-in experience",
      "Unbeatable location",
      "Exceptional host communication"
    ],
    "latitude": 40.64905,
    "longitude": 22.95333
  },
  {
    "url": "https://www.airbnb.com/rooms/1304330563962783725",
    "region": "Neapoli-Sikies",
    "price_per_night": 179.4,
    "guests": 4,
    "beds": 2,
    "bedrooms": 0,
    "baths": 1,
    "is_superhost": true,
    "is_guest_favourite": true,
    "review_index": 4.97,
    "num_reviews": 33,
    "host_name": "Dimitris",
    "characteristics": [
      "Outdoor entertainment",
      "Self check-in"
    ],
    "latitude": 40.6475,
    "longitude": 22.94783
  },
  {
    "url": "https://www.airbnb.com/rooms/901238340098898195",
    "region": "Neapoli-Sikies",
    "price_per_night": 105.8,
    "guests": 4,
    "beds": 2,
    "bedrooms": 1,
    "baths": 0,
    "is_superhost": false,
    "is_guest_favourite": false,
    "review_index": 4.33,
    "num_reviews": 6,
    "host_name": "Ioanna Sikalia",
    "characteristics": [
      "Self check-in",
      "Garden view",
      "Park for free"
    ],
    "latitude": 40.6539,
    "longitude": 22.9578
  },
  {
    "url": "https://www.airbnb.com/rooms/1268308204281781419",
    "region": "Neapoli-Sikies",
    "price_per_night": 64.8,
    "guests": 4,
    "beds": 3,
    "bedrooms": 2,
    "baths": 1,
    "is_superhost": false,
    "is_guest_favourite": false,
    "review_index": 4.82,
    "num_reviews": 34,
    "host_name": "Dimitrios",
    "characteristics": [
      "Great check-in experience",
      "At-home coffee",
      "Exceptional host communication"
    ],
    "latitude": 40.645,
    "longitude": 22.93799
  }
]